{"copyright":"Copyright Sveriges Radio 2014. All rights reserved.","messages":[{"id":1115618,"priority":5,"createddate":"\/Date(1407729295770+0200)\/","title":"E6 Inre ringvägen Malmö","exactlocation":"Västkustvägen tpl Spillepengen","description":"Stor risk för köer pga ombyggnad. Valmöjligheterna i rondellen begränsas och trafiken måste välja andra vägar.","latitude":55.633197784423828,"longitude":13.055941581726074,"category":0,"subcategory":"Vägarbete"},{"id":1126561,"priority":3,"createddate":"\/Date(1408259210733+0200)\/","title":"Kungälv Jordfallsbron","exactlocation":"Bohus - Kungälv","description":"Arbeten på bron med att byta kantbalk. Planerna är att två körfält kommer att vara öppna i den riktning som är hårdast belastad.","latitude":57.855087280273438,"longitude":12.01069164276123,"category":0,"subcategory":"Trafikstörning"},{"id":1205525,"priority":5,"createddate":"\/Date(1410992781797+0200)\/","title":"Sollefteå kommun","exactlocation":"Långbjörns kraftstation söder om Junsele","description":"Pga arbeten vid kraftstationen stängs vägen över dammen mellan Röåns skjutbana och rv 90. Avstängt för all trafik från 26/7 till 31/3 2015. ","latitude":63.637242114815805,"longitude":16.777747164619381,"category":0,"subcategory":"Vägarbete"},{"id":1236052,"priority":3,"createddate":"\/Date(1412659894607+0200)\/","title":"Lv 1610 Viskafors-Rydboholm","exactlocation":"Varbergsvägen","description":"Brorenovering. Avstängt. Omledning.","latitude":57.648490905761719,"longitude":12.879611015319824,"category":0,"subcategory":"Vägarbete"},{"id":1278222,"priority":3,"createddate":"\/Date(1414485760700+0100)\/","title":"E4 Piteå-Norrfjärden","exactlocation":"Boviken-Norrfjärden","description":"Ombyggnation av E4 till 2+1 väg med mittvajer. ","latitude":65.3726806640625,"longitude":21.42949104309082,"category":0,"subcategory":"Vägarbete"},{"id":1272716,"priority":5,"createddate":"\/Date(1415103788277+0100)\/","title":"Lv 824 Leipikvattnet -Stekenjokk","exactlocation":"","description":"Vägen är stängd vintertid.","latitude":64.950035095214844,"longitude":14.196930885314941,"category":0,"subcategory":"Trafikstörning"},{"id":1265946,"priority":5,"createddate":"\/Date(1415103825157+0100)\/","title":"Lv 623 Håkansta","exactlocation":"Håkanstafärjan","description":"Påfartsrampen till färjan har nedsatt bärighet till max 4 ton. Berör tung trafik. Gäller tills vidare.","latitude":63.136157989501953,"longitude":14.321918487548828,"category":0,"subcategory":"Trafikstörning"},{"id":1240737,"priority":3,"createddate":"\/Date(1416034897950+0100)\/","title":"Rv 51 Finspång","exactlocation":"Norrköpingsvägen. Korsningen rv 51/Slottsgatan","description":"Begränsad framkomlighet och risk för köbildning. Byggnation av rondell. ","latitude":58.705530830692638,"longitude":15.785864334178813,"category":0,"subcategory":"Vägarbete"},{"id":1197539,"priority":3,"createddate":"\/Date(1416044972530+0100)\/","title":"Rv 21 Hässleholm-Kristianstad","exactlocation":"Ullstorp-Vanneberga","description":"Bygge av 2+1 väg. Hastighetsbegränsning 70 km/h.","latitude":56.068260192871094,"longitude":13.947724342346191,"category":0,"subcategory":"Vägarbete"},{"id":1289649,"priority":5,"createddate":"\/Date(1416474461660+0100)\/","title":"Lv747 Dormsjö-Brovallen ","exactlocation":"","description":"Fällning av ett stort antal alléträd i höjd med Kloster. Skylift används, varav vägen behöver vara avstängd. Arbetet utförs måndag till fredag mellan kl 08.00-15.00. ","latitude":60.370918273925781,"longitude":16.16351318359375,"category":0,"subcategory":"Vägarbete"},{"id":1293594,"priority":3,"createddate":"\/Date(1416499549720+0100)\/","title":"Lv 845 Bor","exactlocation":"Bron över Bårsån","description":"Broarbete.","latitude":59.559253692626953,"longitude":15.286935806274414,"category":0,"subcategory":"Vägarbete"},{"id":1296320,"priority":4,"createddate":"\/Date(1416579748090+0100)\/","title":"Ljungskile","exactlocation":"Hälle och Lyckorna","description":"Renspolning av vattenledningarna sker 24 nov–12 dec. Vattnet stängs av vid olika tider och berörda hushåll meddelas per post två dagar innan.  Inga kemikalier används och vattnet är ofarligt.","latitude":58.215723715578676,"longitude":11.907643089049248,"category":3,"subcategory":"Vatten"},{"id":1293322,"priority":5,"createddate":"\/Date(1416849142867+0100)\/","title":"Sävenäsleden","exactlocation":"","description":"Broreperation.","latitude":57.726161956787109,"longitude":12.023475646972656,"category":0,"subcategory":"Vägarbete"},{"id":1264122,"priority":5,"createddate":"\/Date(1416924525563+0100)\/","title":"Västra Götalands län","exactlocation":"","description":"Fuktiga och våta vägbanor.","latitude":58.0697441,"longitude":12.3502855,"category":0,"subcategory":"Trafikstörning"},{"id":1292348,"priority":3,"createddate":"\/Date(1416985323867+0100)\/","title":"E6 Kålleredsmotet -Torrekullamotet","exactlocation":"Brännemadsbron","description":"Lagning av bropelare i mitten av vägen. Arbetet beräknas pågå till 31 januari 2015.","latitude":57.611381530761719,"longitude":12.045278549194336,"category":0,"subcategory":"Vägarbete"},{"id":1299462,"priority":3,"createddate":"\/Date(1417010976087+0100)\/","title":"E18/E20 Arboga-Örebro","exactlocation":"Nära E20 i Arboga ","description":"Beläggningsarbete.","latitude":59.404861450195312,"longitude":15.754440307617187,"category":0,"subcategory":"Vägarbete"},{"id":1293336,"priority":3,"createddate":"\/Date(1417065156363+0100)\/","title":"E45 Hökbäck-Lit","exactlocation":"","description":"Nedsatt hastighet till 30 km/t på bron pga arbete.","latitude":63.3145866394043,"longitude":14.867941856384277,"category":0,"subcategory":"Vägarbete"},{"id":1294935,"priority":3,"createddate":"\/Date(1417070694783+0100)\/","title":"E16 Hofors-Ängelsfors","exactlocation":"I närheten av Edsken","description":"Trafiken regleras med ljussignaler.","latitude":60.544136047363281,"longitude":16.218639373779297,"category":0,"subcategory":"Vägarbete"},{"id":1298541,"priority":3,"createddate":"\/Date(1417075898050+0100)\/","title":"E45 Gullbergsmotet-Marieholmsmotet","exactlocation":"I riktning mot Karlstad","description":"Vägarbete.","latitude":57.720874786376953,"longitude":11.995035171508789,"category":0,"subcategory":"Vägarbete"},{"id":1300083,"priority":3,"createddate":"\/Date(1417090653947+0100)\/","title":"Lv 190 Göteborg-Gråbo","exactlocation":"Olofstorp","description":"Vägarbete i riktning mot Gråbo","latitude":57.815376281738281,"longitude":12.189538955688477,"category":0,"subcategory":"Vägarbete"},{"id":1298812,"priority":3,"createddate":"\/Date(1417111224037+0100)\/","title":"E6 Kungälv-Göteborg","exactlocation":"Vid Klarebergsmotet (82) riktning söderut","description":"Underhållsarbete","latitude":57.810920715332031,"longitude":12.006141662597656,"category":0,"subcategory":"Vägarbete"},{"id":1293942,"priority":3,"createddate":"\/Date(1417163633600+0100)\/","title":"Uppsala","exactlocation":"Stora torget ","description":"Torget avstängt för busstrafik under Musikhjälpen. Mellan 1/12 och 16/12. Trångt på bland annat Östra Ågatan och Bangårdsgatan","latitude":59.867568193579871,"longitude":17.640432160692505,"category":1,"subcategory":"Buss"},{"id":1297072,"priority":3,"createddate":"\/Date(1417411511010+0100)\/","title":"Röduppleden","exactlocation":"","description":"Färjan ersatt av isväg. Bruttovikt för fordon: 2 ton.","latitude":66.485633850097656,"longitude":22.777805328369141,"category":0,"subcategory":"Trafikstörning"},{"id":1301683,"priority":3,"createddate":"\/Date(1417412946863+0100)\/","title":"Bohedenleden","exactlocation":"","description":"Isvägen är öppen för fordon upp till 2 ton.","latitude":66.306289672851563,"longitude":22.914651870727539,"category":1,"subcategory":"Färja"},{"id":1300632,"priority":3,"createddate":"\/Date(1417429881057+0100)\/","title":"E6 Uddevalla–Munkedal","exactlocation":"Vid Saltkällan, i riktning mot Munkedal","description":"Arbete i norrgående riktning.","latitude":58.436489105224609,"longitude":11.708499908447266,"category":0,"subcategory":"Vägarbete"},{"id":1266974,"priority":3,"createddate":"\/Date(1417440190740+0100)\/","title":"Rv 27/41 Borås","exactlocation":"Varbergsvägen till och från Borås","description":"Bygge av ny väg mellan Kråkered-Viared.","latitude":57.682376861572266,"longitude":12.935855865478516,"category":0,"subcategory":"Vägarbete"},{"id":1302570,"priority":3,"createddate":"\/Date(1417465964843+0100)\/","title":"Lv531 Mittådalen-Ljungdalen","exactlocation":"","description":"1/12 - 15/4. Vägen över Flatruet är nattstängd mellan kl 22:00 tom 06:00. ","latitude":62.775653839111328,"longitude":12.765754699707031,"category":0,"subcategory":"Trafikstörning"},{"id":1302787,"priority":3,"createddate":"\/Date(1417507155833+0100)\/","title":"Rv 52 Katrineholm mot Nyköping ","exactlocation":"Kerstinboda","description":"Beläggningsarbete","latitude":58.995468139648438,"longitude":16.1881046295166,"category":0,"subcategory":"Vägarbete"},{"id":1302770,"priority":3,"createddate":"\/Date(1417517822940+0100)\/","title":"Rv 25/27 Växjö","exactlocation":"Tpl Kvälleberg","description":"Kabelarbete. Sänkt hastighet till 30 km/h. ","latitude":56.896316528320312,"longitude":14.732833862304688,"category":0,"subcategory":"Vägarbete"},{"id":1294980,"priority":3,"createddate":"\/Date(1417529255557+0100)\/","title":"Linköping","exactlocation":"Gumpekullavägen, mellan Gumpekullarondellen och Runstensgatan","description":"Avstängt 3–12 dec. Omledning via Norrköpingsvägen och Kallestadsleden. Renovering av en avloppsledning. ","latitude":58.422139552505108,"longitude":15.636365096748397,"category":0,"subcategory":"Vägarbete"},{"id":1299283,"priority":5,"createddate":"\/Date(1417530431860+0100)\/","title":"Lv 205 Karlskoga-Grythyttan","exactlocation":"Kärne-Kedjeåsen","description":"Nedsatt hastighet till 50 km/t.","latitude":59.463092803955078,"longitude":14.502652168273926,"category":0,"subcategory":"Vägarbete"},{"id":1303358,"priority":3,"createddate":"\/Date(1417590603657+0100)\/","title":"Uppsala","exactlocation":"Vattholmavägen","description":"Råbyvägen och Gl:a Uppsalagatan. VA-arbeten. Berör både cyklister, fotgängare och biltrafik","latitude":59.866179241943556,"longitude":17.641540191419551,"category":0,"subcategory":"Vägarbete"},{"id":1286816,"priority":3,"createddate":"\/Date(1417602621980+0100)\/","title":"E22 Kristianstad–Tollarp","exactlocation":"Vid Nöbbelöv i båda riktningar","description":"Trafiken regleras med vakt och lots. ","latitude":55.9665641784668,"longitude":14.073190689086914,"category":0,"subcategory":"Vägarbete"},{"id":1302963,"priority":3,"createddate":"\/Date(1417668939750+0100)\/","title":"Lv 204 Svartå Herrgård - Mullhyttan båda riktningarna ","exactlocation":"","description":"Arbete med vägtrummor, ett körfält avstängt.","latitude":59.129600524902344,"longitude":14.623594284057617,"category":0,"subcategory":"Vägarbete"},{"id":1302736,"priority":5,"createddate":"\/Date(1417693443667+0100)\/","title":"Lv 363 Rödånäs-Vindeln","exactlocation":"","description":"Begränsad framkomlighet och tillfälligt nedsatt hastighet.","latitude":64.158660888671875,"longitude":19.835674285888672,"category":0,"subcategory":"Vägarbete"},{"id":1303437,"priority":3,"createddate":"\/Date(1417590743730+0100)\/","title":"Lv 250 Gunnilbo–Oti","exactlocation":"Strax söder om Stjärnvik","description":"Räckesreparation.","latitude":59.8505859375,"longitude":15.84288215637207,"category":0,"subcategory":"Vägarbete"},{"id":1304282,"priority":4,"createddate":"\/Date(1417754371847+0100)\/","title":"Ledningsnätet mellan Kisa och Tidersrum","exactlocation":"","description":"Kvistning längs ledningsgatan med helikopter. Skapar buller och risk för korta strömavbrott. Pågår till 20 dec. ","latitude":57.9603726236428,"longitude":15.561112047957222,"category":3,"subcategory":"Buller"},{"id":1300831,"priority":5,"createddate":"\/Date(1417754562413+0100)\/","title":"Lv 240 Molkom-Sunnemo","exactlocation":"I höjd med Älvsbacka","description":"Avstängt körfält och nedsatt hastighet.","latitude":59.708755493164063,"longitude":13.680062294006348,"category":0,"subcategory":"Vägarbete"},{"id":1305375,"priority":3,"createddate":"\/Date(1417824743597+0100)\/","title":"E10 Kiruna-Abisko","exactlocation":"","description":"Det pågår rensamling under vecka 50 och 51 längs med E10. Påverkar framkomligheten då mycket renar är på/vid vägen.","latitude":68.358198896575459,"longitude":18.783388109526481,"category":0,"subcategory":"Trafikstörning"},{"id":1303441,"priority":3,"createddate":"\/Date(1418013009977+0100)\/","title":"Ringenäs skjutfält","exactlocation":"","description":"Skjutövningar: Mån 8/12 9-16. Tis 9/12 9-16. Ons 10/12 9-20.30. Tors 11/12 9-15.","latitude":56.786695237295007,"longitude":12.844089756614219,"category":3,"subcategory":"Övrigt"},{"id":1298673,"priority":3,"createddate":"\/Date(1416927878787+0100)\/","title":"Lv 122 Fridlevstad ","exactlocation":"","description":"Renovering av busshållsplatser. Trafiken dirigeras med trafikljus. Rekommenderad hastighet 50 km/h.","latitude":56.269058227539063,"longitude":15.55036449432373,"category":0,"subcategory":"Vägarbete"},{"id":1306319,"priority":3,"createddate":"\/Date(1418018272887+0100)\/","title":"Rv 46 Falköping-Ulricehamn","exactlocation":"Timmele-Ulricehamn","description":"Arbete med ny väg.","latitude":57.833984375,"longitude":13.438756942749023,"category":0,"subcategory":"Vägarbete"},{"id":1306388,"priority":3,"createddate":"\/Date(1418023139817+0100)\/","title":"Rv 51 Finspång","exactlocation":"Finspång-Finnvedsvägen","description":"Byggande av cirkulationsplats. ","latitude":58.705348968505859,"longitude":15.784066200256348,"category":0,"subcategory":"Vägarbete"},{"id":1306402,"priority":3,"createddate":"\/Date(1418023690277+0100)\/","title":"E4 Skönsmon - Skönsberg","exactlocation":"","description":"Omfattande arbete med skyltning, risk för trafikstörningar under dagtid på vardagar.","latitude":62.388938903808594,"longitude":17.31468391418457,"category":0,"subcategory":"Vägarbete"},{"id":1306398,"priority":3,"createddate":"\/Date(1418027701540+0100)\/","title":"Rv 56 vid Äs, i båda riktningar.","exactlocation":"","description":"Beläggningsarbete på kommunal gångbana. Påverkar 100 m av filen i södergående riktning.\n","latitude":59.155574798583984,"longitude":16.109323501586914,"category":0,"subcategory":"Vägarbete"},{"id":1306530,"priority":3,"createddate":"\/Date(1418031402337+0100)\/","title":"Lv 288 Spånga - Alunda kyrka","exactlocation":"","description":"Vägen breddas. Ljussignaler styr trafiken.","latitude":60.048435211181641,"longitude":18.049083709716797,"category":0,"subcategory":"Vägarbete"},{"id":1302205,"priority":5,"createddate":"\/Date(1418032183873+0100)\/","title":"Lv 910 Åkers Styckebruk-Merlänna","exactlocation":"","description":"Vägarbete.","latitude":59.273712158203125,"longitude":17.040412902832031,"category":0,"subcategory":"Vägarbete"},{"id":1300263,"priority":5,"createddate":"\/Date(1418032762117+0100)\/","title":"Lv 660 Trevlinge–Sandbol","exactlocation":"","description":"Kabelarbete på sträckan.","latitude":59.939731597900391,"longitude":17.883937835693359,"category":0,"subcategory":"Vägarbete"},{"id":1304456,"priority":5,"createddate":"\/Date(1418032829210+0100)\/","title":"Rv 83 Tönnebro-Kilafors","exactlocation":"Stråtjära","description":"Nedsatt hastighet till 40 km/t pga beläggningsarbete.","latitude":61.176025390625,"longitude":16.793476104736328,"category":0,"subcategory":"Vägarbete"},{"id":1306514,"priority":3,"createddate":"\/Date(1418034556033+0100)\/","title":"Lv 603 Rugstorp - Ålem","exactlocation":"Båda riktningarna","description":"Dräneringsarbete. Trafikljus reglerar trafiken.","latitude":56.918964385986328,"longitude":16.259061813354492,"category":0,"subcategory":"Vägarbete"},{"id":1304817,"priority":3,"createddate":"\/Date(1418023331627+0100)\/","title":"Borås","exactlocation":"Södra Kyrkogatan/Gustav Adolfsgatan, korsningen Alströmergatan","description":"Vägen tillfälligt avstängd 8-12 /12 pga byggnation av övergångställe. ","latitude":57.723506514124345,"longitude":12.948508751591595,"category":0,"subcategory":"Trafikstörning"},{"id":1300686,"priority":3,"createddate":"\/Date(1418037818760+0100)\/","title":"Halmstad","exactlocation":"Slottsjordsvägen, ut från Slottsrondellen","description":"Avstängt tom torsdag 11 dec kl 18.  Följ orange skyltning.","latitude":56.670523460623528,"longitude":12.8529426316641,"category":0,"subcategory":"Vägarbete"},{"id":1306619,"priority":3,"createddate":"\/Date(1418037851173+0100)\/","title":"Rv 55 Strängnäs-Enköping","exactlocation":"Hjulstabron, i båda riktningar.","description":"Vägarbete på bron. Trafik regleras med trafikljus. ","latitude":59.5291862487793,"longitude":17.00660514831543,"category":0,"subcategory":"Vägarbete"},{"id":1263022,"priority":3,"createddate":"\/Date(1418038013090+0100)\/","title":"Rv 40 Ulricehamn","exactlocation":"","description":"Arbete med att bygga den nya rv 40. Omledning via 50-väg genom Rönnåsens industriområde.","latitude":57.803955078125,"longitude":13.475101470947266,"category":0,"subcategory":"Vägarbete"},{"id":1255524,"priority":3,"createddate":"\/Date(1418043918757+0100)\/","title":"E4 Gränna-Huskvarna","exactlocation":"Trafikplats Vättersmålen till Trafikplats Huskvarna norra i riktning mot Jönköping","description":"Avstängt körfält. Arbete med bullerplank.","latitude":57.816932678222656,"longitude":14.271590232849121,"category":0,"subcategory":"Vägarbete"},{"id":1306731,"priority":3,"createddate":"\/Date(1418048483837+0100)\/","title":"Lv 156 Skene-Skogshem","exactlocation":"","description":"Vägen byggs om och ska bli 2+1-väg. ","latitude":57.496719360351563,"longitude":12.619714736938477,"category":0,"subcategory":"Vägarbete"},{"id":1306307,"priority":3,"createddate":"\/Date(1418058440393+0100)\/","title":"E6 Göteborg-Mölndal","exactlocation":"Ullevimotet (73)","description":"Vägarbete  runt brofästet vid Ullevimotet. berör trafiken i bägge riktningar.dagtid.","latitude":57.706630706787109,"longitude":11.995977401733398,"category":0,"subcategory":"Vägarbete"},{"id":1307061,"priority":3,"createddate":"\/Date(1418102836960+0100)\/","title":"Västmanlands län","exactlocation":"","description":"På grund av arbete stannar inga SJ-tåg vid Ransta station.","latitude":59.754771875027444,"longitude":16.61420127809566,"category":1,"subcategory":"Tåg"},{"id":1307066,"priority":3,"createddate":"\/Date(1418103635943+0100)\/","title":"Lv 148 vid Follingborondellen, i riktning mot Visby.","exactlocation":"","description":"","latitude":57.624820709228516,"longitude":18.320894241333008,"category":0,"subcategory":"Vägarbete"},{"id":1303546,"priority":3,"createddate":"\/Date(1418106174710+0100)\/","title":"Lv 687 Brokind-Bestorp","exactlocation":"vid Garnvik","description":"Vägen avstängd till och med fredag (12 dec) kl. 23. Skyltad omledning. Byte av bro över järnvägen.","latitude":58.228622905087917,"longitude":15.700775986373587,"category":0,"subcategory":"Vägarbete"},{"id":1298201,"priority":3,"createddate":"\/Date(1418106822810+0100)\/","title":"Rv 23 Höör-Snogeröd","exactlocation":"Vid Gamla Bo","description":"Risk för köer. Trafiken regleras med trafikljus.","latitude":55.866470336914063,"longitude":13.496500968933105,"category":0,"subcategory":"Vägarbete"},{"id":1296228,"priority":4,"createddate":"\/Date(1418109235120+0100)\/","title":"Jönköping","exactlocation":"Åsenvägen","description":"Stängd för genomfart fr o m månd 24/11. Trafiken leds delvis om pga ett arbete i höjd med Kristinedals äldreboende. Åsenvägen beräknas öppna 13/12 igen.","latitude":57.779798111199149,"longitude":14.162714906803089,"category":0,"subcategory":"Trafikstörning"},{"id":1212188,"priority":3,"createddate":"\/Date(1418115340840+0100)\/","title":"E12 Lycksele-Storuman","exactlocation":"Åskilje, i båda riktningar","description":"Trafik dirigeras med trafikljus och lots pga beläggningsarbete. ","latitude":65.009452819824219,"longitude":17.670541763305664,"category":0,"subcategory":"Vägarbete"},{"id":1307275,"priority":3,"createddate":"\/Date(1418120796850+0100)\/","title":"Dalsjöfors","exactlocation":"Västerdalsvägen","description":"Vägen avstängd på grund av vattenläcka 9/12-12/12.","latitude":57.723880501514614,"longitude":13.104443794441424,"category":0,"subcategory":"Trafikstörning"},{"id":1307231,"priority":3,"createddate":"\/Date(1418124083777+0100)\/","title":"E4 Jönåker - Nyköping","exactlocation":"Trafikplats Bergshammar","description":"Avfarten stängd på grund av vägarbete.","latitude":58.745235443115234,"longitude":16.939113616943359,"category":0,"subcategory":"Vägarbete"},{"id":1303131,"priority":3,"createddate":"\/Date(1418135053480+0100)\/","title":"Övre Husargatan, Göteborg","exactlocation":"Brunnsgatan","description":"Arbete med att ta bort trafikljusen för biltrafiken och fotgängare på södra sidan av rondellen. Planerat att vara klart innan jul.","latitude":57.69402128736423,"longitude":11.957538293121674,"category":0,"subcategory":"Vägarbete"},{"id":1306623,"priority":3,"createddate":"\/Date(1418166050597+0100)\/","title":"Norrköping","exactlocation":"Hagebygatan","description":"10/12: Gatan stängs pga vägarbete. Busshållplats Hageby vårdcentral och S:t Johannes stängs av. Resande hänvisas till hpl  Hageby C/Lidaleden och S:t Olofsgatan.","latitude":58.596556752708992,"longitude":16.151140023522519,"category":0,"subcategory":"Vägarbete"},{"id":1304851,"priority":4,"createddate":"\/Date(1418186695163+0100)\/","title":"Hedemora","exactlocation":"","description":"10/12  Blodbussen står vid hemköp i Hedemora, kl. 9-11:45 och 13-18.","latitude":60.750251198062792,"longitude":15.844182278901942,"category":3,"subcategory":"Hälsa och sjukvård"},{"id":1263776,"priority":3,"createddate":"\/Date(1418186907710+0100)\/","title":"Örebro län ","exactlocation":"","description":"Stor risk för halt väglag.","latitude":59.4352722,"longitude":14.7333231,"category":0,"subcategory":"Halkvarning"},{"id":1299425,"priority":3,"createddate":"\/Date(1418194345680+0100)\/","title":"Lv 1819 Habo","exactlocation":"Del av Bränningegatan i Habo centrum","description":"Vägen stängs av 10–12 dec i samband med ledningsarbete. Omledning via sidogator.","latitude":57.906024932861328,"longitude":14.073467254638672,"category":0,"subcategory":"Vägarbete"},{"id":1302696,"priority":5,"createddate":"\/Date(1418198314523+0100)\/","title":"Rv 86 Bergsåker-Kovland","exactlocation":"","description":"Begränsad framkomlighet och tillfälligt nedsatt hastighet.","latitude":62.435581207275391,"longitude":17.17411994934082,"category":0,"subcategory":"Vägarbete"},{"id":1308002,"priority":3,"createddate":"\/Date(1418199239857+0100)\/","title":"Lv 156 Skene","exactlocation":"","description":"Nybyggnation av gata och VA-arbeten.","latitude":57.490501403808594,"longitude":12.630349159240723,"category":0,"subcategory":"Vägarbete"},{"id":1308011,"priority":3,"createddate":"\/Date(1418199367617+0100)\/","title":"Vaggeryd och Skillingaryd","exactlocation":"Biblioteket","description":"Onsdag 10/12 stänger biblioteken i Vaggeryd och Skillingaryd kl 16:00 (vanligtvis är det öppet till 19)","latitude":57.472876514352542,"longitude":14.121777576365657,"category":3,"subcategory":"Övrigt"},{"id":1306339,"priority":4,"createddate":"\/Date(1418206160787+0100)\/","title":"Blodmobilen","exactlocation":"Volvo SA Gustav Larssons väg","description":"10/12 08:30-15:00.","latitude":57.757404462672142,"longitude":11.882504556327131,"category":3,"subcategory":"Hälsa och sjukvård"},{"id":1263779,"priority":3,"createddate":"\/Date(1418214618227+0100)\/","title":"Uppsala län","exactlocation":"","description":"Lokal ishalka.","latitude":59.96126,"longitude":17.78068,"category":0,"subcategory":"Halkvarning"},{"id":1304354,"priority":3,"createddate":"\/Date(1418216258287+0100)\/","title":"Vilhelmina","exactlocation":"","description":"Blodbussen står vid Vilhelminas hälsocentral onsdag 10/12 kl 9:30-12, 13:30-17 och 17:30-19:00.\nTorsdag 11/12 8:30-12:00.","latitude":63.763658379152346,"longitude":20.443997051628063,"category":3,"subcategory":"Hälsa och sjukvård"},{"id":1263644,"priority":3,"createddate":"\/Date(1418217728263+0100)\/","title":"Kalmar län","exactlocation":"","description":"Risk för lokal ishalka ikväll och inatt i samband med påfrysning och sjunkande temperatur.","latitude":56.8659172,"longitude":15.9477434,"category":0,"subcategory":"Halkvarning"},{"id":1263647,"priority":3,"createddate":"\/Date(1418217748310+0100)\/","title":"Kronobergs län","exactlocation":"","description":"Risk för lokal ishalka ikväll och inatt i samband med påfrysning och sjunkande temperatur.","latitude":56.7490959,"longitude":14.3933315,"category":0,"subcategory":"Halkvarning"},{"id":1263646,"priority":3,"createddate":"\/Date(1418217766387+0100)\/","title":"Jönköpings län ","exactlocation":"","description":"Risk för lokal ishalka ikväll och inatt i samband med påfrysning och sjunkande temperatur.","latitude":57.47894,"longitude":14.3679695,"category":0,"subcategory":"Halkvarning"},{"id":1099609,"priority":3,"createddate":"\/Date(1418217975200+0100)\/","title":"Östergötlands län","exactlocation":"","description":"Risk för lokal ishalka ikväll och inatt i samband med påfrysning och sjunkande temperatur.","latitude":58.3364258,"longitude":15.6248283,"category":0,"subcategory":"Halkvarning"},{"id":1307878,"priority":3,"createddate":"\/Date(1418219105013+0100)\/","title":"Västerleden","exactlocation":"Gnistängstunneln ","description":"10/12 20:00-05:30, Tunnelröret mot Frölunda avstängt på grund av arbeten. Dubbelriktat trafik i det andra röret\n","latitude":57.675056457519531,"longitude":11.89515495300293,"category":0,"subcategory":"Vägarbete"},{"id":1294245,"priority":3,"createddate":"\/Date(1418219135920+0100)\/","title":"E45 Göteborg","exactlocation":"Götatunneln","description":"10/12 kl 21:00-05:30 Västgående tunnelrör avstängt för trafik på grund av underhållsarbeten. Trafiken i riktning mot Järntorget leds på det kommunla vägnätet.","latitude":57.710197448730469,"longitude":11.965317726135254,"category":0,"subcategory":"Vägarbete"},{"id":1297827,"priority":3,"createddate":"\/Date(1418220005810+0100)\/","title":"Hjorthagskopplet","exactlocation":"","description":"Vägen avstängd mellan kl 22 - 05 under perioden 9-12 december.","latitude":59.356658199990648,"longitude":18.102950017338845,"category":0,"subcategory":"Vägarbete"},{"id":1307784,"priority":3,"createddate":"\/Date(1418221352120+0100)\/","title":"Stockholms skärgård","exactlocation":"Waxholmsbolaget","description":"Störningar i skärgårdstrafiken pga hårt väder.","latitude":59.309763472503157,"longitude":18.745796728891172,"category":1,"subcategory":"Färja"},{"id":1308385,"priority":3,"createddate":"\/Date(1418221924233+0100)\/","title":"Rv 31/40 Jönköping–Nässjö","exactlocation":"Nässjö-Öggestorp","description":"Räckesarbete. Begränsad framkomlighet.","latitude":57.675193786621094,"longitude":14.52690315246582,"category":0,"subcategory":"Vägarbete"},{"id":1304204,"priority":3,"createddate":"\/Date(1418223277810+0100)\/","title":"Gränna-Visingsö","exactlocation":"","description":"Ebba Brahe ersätter, vilket innebär reducerad kapacitet. Gäller t o m den 12/12.","latitude":58.034072875976562,"longitude":14.349037170410156,"category":1,"subcategory":"Färja"},{"id":1308360,"priority":3,"createddate":"\/Date(1418223980657+0100)\/","title":"Dalsland och Bohuslän","exactlocation":"","description":"Lokal ishalka på både det större och mindre vägnätet. ","latitude":58.803725131826361,"longitude":12.152242070904734,"category":0,"subcategory":"Halkvarning"},{"id":1308435,"priority":3,"createddate":"\/Date(1418226647397+0100)\/","title":"E4 Tierp-Uppsala","exactlocation":"Före Månkarbo","description":"Stillastående bil på vägen.","latitude":60.022469246601013,"longitude":17.624226079455614,"category":0,"subcategory":"Trafikstörning"},{"id":1308446,"priority":3,"createddate":"\/Date(1418227484147+0100)\/","title":"Lv352 Björna-Bergvattnet","exactlocation":"Björnforsen. ","description":"Stillastående lastbil. ","latitude":63.543917940606931,"longitude":18.625033771078275,"category":0,"subcategory":"Trafikstörning"},{"id":1308423,"priority":3,"createddate":"\/Date(1418227667097+0100)\/","title":"Sjuhäradsområdet","exactlocation":"","description":"Lokal ishalka på både stora och små vägar. ","latitude":57.962986361660612,"longitude":13.023377573970198,"category":0,"subcategory":"Halkvarning"},{"id":1302300,"priority":3,"createddate":"\/Date(1418227758763+0100)\/","title":"Gällivare kommun","exactlocation":"Skröven ","description":"10/12 kom klartecken från testlaboratoriet att det inte längre finns e-kolibakterier i dricksvattnet.\n","latitude":66.760422922842608,"longitude":21.881049628791235,"category":3,"subcategory":"Vatten"},{"id":1307449,"priority":3,"createddate":"\/Date(1418228543410+0100)\/","title":"Varning klass 1 kulingvarning","exactlocation":"Vänern","description":"Sydväst och tidvis 15 m/s. Torsdag eftermiddag avtagande.\n","latitude":58.529467776249028,"longitude":13.230521566037661,"category":3,"subcategory":"Väder"},{"id":1307449,"priority":3,"createddate":"\/Date(1418228543410+0100)\/","title":"Varning klass 1 kulingvarning","exactlocation":"Vänern","description":"Sydväst och tidvis 15 m/s. Torsdag eftermiddag avtagande.\n","latitude":58.529467776249028,"longitude":13.230521566037661,"category":3,"subcategory":"Väder"},{"id":1308443,"priority":3,"createddate":"\/Date(1418228843147+0100)\/","title":"E20 Lerum-Floda","exactlocation":"","description":"Bil med punktering ca 500 m innan Flodaavfarten(88) i riktning mot Alingsås.","latitude":57.798595459196065,"longitude":12.356679910093797,"category":0,"subcategory":"Trafikstörning"},{"id":1264248,"priority":3,"createddate":"\/Date(1418229593703+0100)\/","title":"Jämtlands län     ","exactlocation":"","description":"Risk för snöhalka under dagen.  Även risk för snödrev och snörök i samband med friska till hårda vindar.\n\n","latitude":63.4809952,"longitude":14.326333,"category":0,"subcategory":"Halkvarning"},{"id":1256516,"priority":3,"createddate":"\/Date(1418229597417+0100)\/","title":"Norrbottens län ","exactlocation":" ","description":"Risk för ishalka längs inlandet och kusten. Risk för snöhalka i fjälltrakterna.","latitude":66.74946,"longitude":21.38291,"category":0,"subcategory":"Halkvarning"},{"id":1264254,"priority":3,"createddate":"\/Date(1418229600660+0100)\/","title":"Västernorrlands län ","exactlocation":"   ","description":"Risk för ishalka pga nederbörd faller på kalla vägbanor. I Inlandet som snö och längs kusten som snöblandat regn.","latitude":62.8307724,"longitude":17.636301,"category":0,"subcategory":"Halkvarning"},{"id":1264256,"priority":3,"createddate":"\/Date(1418229603780+0100)\/","title":"Västerbottens län ","exactlocation":"","description":"Risk för ishalka längs kusten pga nederbörd på kalla vägar. Risk för snöhalka i inlandet och i fjälltrakterna.","latitude":64.9181442,"longitude":18.94519,"category":0,"subcategory":"Halkvarning"},{"id":1308487,"priority":3,"createddate":"\/Date(1418229794910+0100)\/","title":"Göteborgsområdet","exactlocation":"","description":"Varning för halka på höglänta områden utanför Göteborg.","latitude":58.081551186872986,"longitude":12.497506842692301,"category":0,"subcategory":"Halkvarning"},{"id":1308458,"priority":3,"createddate":"\/Date(1418230527310+0100)\/","title":"Halland","exactlocation":"","description":"Lokal ishalka på både stora och små vägar. ","latitude":57.193524238604112,"longitude":12.79978969551453,"category":0,"subcategory":"Halkvarning"}],"pagination":{"page":1,"size":100,"totalhits":134,"totalpages":2,"nextpage":"http://api.sr.se/api/v2/traffic/messages?size=100&format=json&page=2"}}